City_ID,City,Lat,Lng,Max Temp,Humidity,Cloudiness,Wind Speed,Country,Date
0,puerto lempira,15.2667,-83.7667,30.08,66,75,0.0,HN,1717950955
1,chibuto,-24.6867,33.5306,17.16,67,94,2.17,MZ,1717950955
2,imbituba,-28.24,-48.6703,24.4,57,24,5.6,BR,1717950956
3,port-aux-francais,-49.35,70.2167,6.72,98,100,17.72,TF,1717950872
4,tiksi,71.6872,128.8694,0.12,96,96,2.46,RU,1717950875
5,jinchang,38.4953,102.1739,22.7,24,82,2.39,CN,1717950956
6,talnakh,69.4865,88.3972,3.45,99,93,2.1,RU,1717950789
7,tura,25.5198,90.2201,25.84,92,1,3.31,IN,1717950883
8,puerto natales,-51.7236,-72.4875,-0.75,100,100,1.03,CL,1717950872
9,al jawf,29.5,38.75,34.69,10,0,4.84,SA,1717950956
10,ebon,4.582,168.6964,28.79,77,73,6.38,MH,1717950954
11,waitangi,-43.9535,-176.5597,13.23,87,100,5.36,NZ,1717950956
12,lompoc,34.6391,-120.4579,18.85,77,40,1.54,US,1717950957
13,puerto ayora,-0.7393,-90.3518,26.98,92,45,0.45,EC,1717950957
14,berezovyy,51.6667,135.7,12.18,99,100,1.51,RU,1717950882
15,yellowknife,62.456,-114.3525,11.34,69,75,4.63,CA,1717950957
16,ceres,37.5949,-120.9577,23.45,49,0,0.0,US,1717950957
17,margaret river,-33.95,115.0667,15.46,61,100,12.23,AU,1717950873
18,ceerigaabo,10.6162,47.368,23.12,48,21,9.02,SO,1717950957
19,udachny,66.4167,112.4,16.92,34,100,3.3,RU,1717950957
20,hawaiian paradise park,19.5933,-154.9731,21.69,86,40,0.0,US,1717950957
21,dawesville,30.9224,-84.0091,33.53,39,0,3.09,US,1717950958
22,adamstown,-25.066,-130.1015,22.26,73,27,6.1,PN,1717950874
23,aioun,16.6614,-9.6149,41.92,16,28,2.52,MR,1717950958
24,bethel,41.3712,-73.414,20.5,81,100,5.14,US,1717950875
25,revda,56.801,59.9303,11.43,99,100,1.91,RU,1717950958
26,constantia,44.1833,28.65,29.38,68,77,7.21,RO,1717950958
27,marat,25.0701,45.4615,36.56,8,3,4.72,SA,1717950843
28,baiyin,36.5583,104.2081,21.49,29,60,1.14,CN,1717950958
29,isafjordur,66.0755,-23.124,9.02,87,20,5.14,IS,1717950873
30,moranbah,-22.0016,148.0466,11.32,56,0,2.47,AU,1717950958
31,marka,1.7159,44.7717,25.85,82,62,8.43,SO,1717950959
32,hermanus,-34.4187,19.2345,13.78,76,6,4.02,ZA,1717950959
33,shahin dezh,36.6793,46.5669,24.25,20,5,3.21,IR,1717950959
34,grytviken,-54.2811,-36.5092,-4.92,76,21,6.91,GS,1717950872
35,laguna,38.421,-121.4238,23.51,60,0,4.12,US,1717950882
36,port alfred,-33.5906,26.891,16.28,65,0,2.55,ZA,1717950873
37,albany,42.6001,-73.9662,17.47,86,89,0.45,US,1717950916
38,ust-nera,64.5667,143.2,5.16,57,79,1.94,RU,1717950731
39,crane,31.3974,-102.3501,33.96,22,18,1.2,US,1717950947
40,hamilton,39.1834,-84.5333,24.53,56,0,3.6,US,1717950839
41,stanley,54.868,-1.6985,15.16,59,40,3.09,GB,1717950872
42,hoemul-li,41.4339,129.67,16.03,69,2,2.5,KP,1717950960
43,enewetak,11.3474,162.3373,28.3,82,100,7.19,MH,1717950960
44,vorgashor,67.5833,63.95,2.11,96,100,4.14,RU,1717950960
45,aasiaat,68.7098,-52.8699,1.3,98,100,1.44,GL,1717950960
46,bichena,10.45,38.2,21.96,28,84,2.05,ET,1717950960
47,salym,60.0625,71.4789,14.31,62,36,1.48,RU,1717950960
48,karratha,-20.7377,116.8463,20.05,73,0,1.93,AU,1717950897
49,ar rahad,12.7167,30.65,35.44,31,77,1.61,SD,1717950960
50,chonchi,-42.6128,-73.8092,10.56,82,93,3.1,CL,1717950704
51,ribeira grande,38.5167,-28.7,22.22,78,20,6.71,PT,1717950877
52,lagoa,39.05,-27.9833,18.75,79,8,4.85,PT,1717950961
53,haiku-pauwela,20.9219,-156.3051,23.91,79,20,4.63,US,1717950961
54,namtsy,62.7161,129.6658,10.8,49,0,2.73,RU,1717950790
55,avarua,-21.2078,-159.775,21.03,56,40,1.54,CK,1717950872
56,iqaluit,63.7506,-68.5145,4.85,52,100,5.14,CA,1717950961
57,phan rang-thap cham,11.5667,108.9833,26.07,88,99,2.63,VN,1717950961
58,rakovski,42.3,24.9667,33.05,44,23,2.88,BG,1717950961
59,bredasdorp,-34.5322,20.0403,11.02,89,5,2.4,ZA,1717950873
60,uturoa,-16.7333,-151.4333,26.96,79,92,4.83,PF,1717950956
61,punta arenas,-53.15,-70.9167,2.06,80,40,3.09,CL,1717950673
62,port nelson,23.6333,-74.8333,25.68,80,100,5.86,BS,1717950962
63,rio grande,-32.035,-52.0986,27.19,68,59,5.88,BR,1717950962
64,olonkinbyen,70.9221,-8.7187,-0.85,81,90,7.81,SJ,1717950962
65,cabo san lucas,22.8909,-109.9124,23.17,79,0,2.57,MX,1717950744
66,plettenberg bay,-34.0527,23.3716,13.12,78,0,1.89,ZA,1717950962
67,carnarvon,-24.8667,113.6333,20.74,87,100,1.77,AU,1717950880
68,sitka,57.0531,-135.33,9.94,87,75,2.57,US,1717950874
69,kapa'a,22.0752,-159.319,24.18,82,100,4.12,US,1717950943
70,huanggang,23.677,116.9996,24.94,92,100,0.97,CN,1717950963
71,tangalle,6.024,80.7911,25.98,91,98,4.7,LK,1717950963
72,kot sultan,30.7737,70.9313,32.58,25,80,2.98,PK,1717950963
73,petropavlovsk-kamchatsky,53.0452,158.6483,11.33,63,75,6.26,RU,1717950951
74,kudahuvadhoo,2.6708,72.8944,28.95,74,98,3.72,MV,1717950961
75,karatuzskoye,53.6072,92.8667,16.88,89,100,3.58,RU,1717950963
76,sinabang,2.4803,96.3801,25.82,87,87,1.19,ID,1717950953
77,salmon arm,50.6998,-119.3024,20.8,58,100,0.51,CA,1717950963
78,sept-iles,50.2001,-66.3821,13.29,88,75,6.69,CA,1717950963
79,west island,-12.1568,96.8225,27.99,78,40,2.57,CC,1717950873
80,loboc,9.6383,124.0348,26.81,83,90,0.71,PH,1717950963
81,nemuro,43.3236,145.575,9.96,95,100,6.26,JP,1717950964
82,sao joao da barra,-21.6403,-41.0511,30.05,69,3,5.16,BR,1717950964
83,ciudad lazaro cardenas,17.9583,-102.2,29.59,57,19,4.8,MX,1717950670
84,kodiak,57.79,-152.4072,6.73,100,100,10.29,US,1717950877
85,longyearbyen,78.2186,15.6401,3.91,65,75,6.17,SJ,1717950873
86,port elizabeth,-33.918,25.5701,13.39,84,0,1.03,ZA,1717950704
87,tazovsky,67.4667,78.7,1.91,81,65,2.64,RU,1717950880
88,ushuaia,-54.8,-68.3,0.79,80,20,1.54,AR,1717950840
89,jamestown,42.097,-79.2353,18.9,59,75,6.17,US,1717950706
90,wailua homesteads,22.0669,-159.378,23.44,82,100,4.12,US,1717950965
91,pisco,-13.7,-76.2167,17.03,94,100,3.6,PE,1717950880
92,ceeldheer,3.8488,47.1806,26.14,77,100,10.1,SO,1717950965
93,lysekil,58.2743,11.4358,12.84,77,46,14.94,SE,1717950966
94,qaqortoq,60.7167,-46.0333,6.26,96,100,1.66,GL,1717950876
95,uri,34.0833,74.0333,20.79,43,43,3.11,IN,1717950966
96,papatowai,-46.5619,169.4708,9.97,95,100,5.55,NZ,1717950966
97,whitehorse,60.7161,-135.0538,17.67,30,75,4.63,CA,1717950875
98,eslov,55.8393,13.3039,13.14,81,73,7.1,SE,1717950966
99,edinburgh of the seven seas,-37.0676,-12.3116,14.24,83,100,8.23,SH,1717950966
100,badger,64.8,-147.5333,20.6,48,75,2.06,US,1717950967
101,invercargill,-46.4,168.35,8.34,96,100,5.36,NZ,1717950967
102,boysun,38.2061,67.1986,24.06,29,54,2.58,UZ,1717950967
103,tolanaro,-25.0319,46.9987,17.04,94,75,1.54,MG,1717950967
104,amahai,-3.3333,128.9167,25.47,89,92,2.65,ID,1717950967
105,port lincoln,-34.7333,135.8667,14.91,55,100,3.13,AU,1717950967
106,newman,37.3138,-121.0208,23.46,51,37,0.69,US,1717950849
107,hotan,37.0997,79.9269,23.46,30,87,1.0,CN,1717950967
108,arar,30.9753,41.0381,41.01,6,0,3.6,SA,1717950967
109,codrington,-38.2667,141.9667,6.14,92,7,2.94,AU,1717950968
110,bontang,0.1333,117.5,27.18,82,98,1.79,ID,1717950968
111,saint-philippe,-21.3585,55.7679,22.77,82,48,4.68,RE,1717950955
112,jatiroto,-7.8833,111.1167,23.64,93,98,1.36,ID,1717950968
113,jinxiang,27.4327,120.6062,22.86,99,100,0.94,CN,1717950968
114,inarajan village,13.2736,144.7484,28.54,91,56,5.22,GU,1717950968
115,zunyi,27.6867,106.9072,18.78,97,100,0.94,CN,1717950968
116,dampit,-8.2116,112.7493,21.83,100,64,0.82,ID,1717950968
117,nizhneudinsk,54.9076,99.0276,12.89,96,65,1.9,RU,1717950893
118,celestun,20.8667,-90.4,31.9,61,99,4.73,MX,1717950968
119,port mathurin,-19.6833,63.4167,24.3,82,64,7.99,MU,1717950873
120,angaur state,6.906,134.13,29.14,74,40,3.99,PW,1717950969
121,mejit,10.2753,170.8646,27.99,80,42,6.6,MH,1717950969
122,katsuura,35.1333,140.3,19.01,84,100,2.88,JP,1717950893
123,guerrero negro,27.9769,-114.0611,19.41,63,7,5.23,MX,1717950946
124,zamora,-4.0692,-78.9567,29.58,65,100,1.89,EC,1717950969
125,ridder,50.355,83.5133,15.38,88,24,1.88,KZ,1717950969
126,kuanda,56.3161,116.0806,8.61,74,11,0.2,RU,1717950895
127,gornopravdinsk,60.05,69.9,14.14,63,29,1.26,RU,1717950959
128,bom jesus,-9.0744,-44.3586,35.99,24,21,3.64,BR,1717950969
129,peace river,56.2501,-117.286,10.17,87,100,3.09,CA,1717950970
130,gaspe,48.8334,-64.4819,13.12,94,100,2.57,CA,1717950945
131,ketchikan,55.3422,-131.6461,12.97,40,75,3.09,US,1717950970
132,east london,-33.0153,27.9116,13.52,88,0,1.54,ZA,1717950970
133,manokwari,-0.8667,134.0833,26.02,78,94,1.59,ID,1717950970
134,hadibu,12.65,54.0333,28.95,73,54,6.69,YE,1717950970
135,coyhaique,-45.5752,-72.0662,6.34,100,100,0.78,CL,1717950970
136,tromso,69.6496,18.957,14.01,58,75,7.2,NO,1717950897
137,argostolion,38.1811,20.489,28.04,54,0,3.09,GR,1717950970
138,touros,-5.1989,-35.4608,28.09,75,67,7.24,BR,1717950951
139,la passe,45.5549,-0.8967,24.13,74,75,7.77,FR,1717950885
140,south boston,42.3334,-71.0495,15.15,91,100,3.6,US,1717950971
141,bilibino,68.0546,166.4372,6.13,61,3,1.43,RU,1717950971
142,pizarro,4.9533,-77.366,28.01,81,93,1.81,CO,1717950971
143,holualoa,19.6228,-155.9522,23.26,83,40,1.54,US,1717950952
144,mount pleasant,32.7941,-79.8626,34.03,46,0,4.63,US,1717950971
145,lake havasu city,34.4839,-114.3224,35.34,16,49,8.23,US,1717950971
146,blackmans bay,-43.0167,147.3167,5.85,86,31,0.45,AU,1717950873
147,na klang,17.3072,102.1889,24.79,97,100,2.68,TH,1717950971
148,plattsmouth,41.0114,-95.8822,26.25,43,0,2.68,US,1717950971
149,bubaque,11.2833,-15.8333,26.76,79,82,3.83,GW,1717950879
150,poyarkovo,49.6,128.6833,11.74,89,7,2.58,RU,1717950972
151,college,64.8569,-147.8028,20.65,47,75,2.06,US,1717950872
152,bikenibeu village,1.3673,173.1241,27.98,83,20,2.06,KI,1717950972
153,kurumkan,54.3,110.3,16.74,47,93,2.68,RU,1717950972
154,georgetown,5.4112,100.3354,28.96,69,40,4.63,MY,1717950950
155,santa ana,33.7456,-117.8678,20.8,79,100,2.57,US,1717950972
156,brisas de zicatela,15.8369,-97.0419,31.29,70,75,1.54,MX,1717950957
157,keflavik,64.0049,-22.5624,10.24,57,0,5.14,IS,1717950941
158,waddan,29.1614,16.139,36.85,11,0,2.35,LY,1717950973
159,tidjikja,18.5564,-11.4271,40.4,18,85,4.93,MR,1717950973
160,port blair,11.6667,92.75,24.02,94,100,2.57,IN,1717950973
161,huaicheng,23.9051,112.1931,23.73,98,100,0.41,CN,1717950973
162,suva,-18.1416,178.4415,17.71,100,75,1.54,FJ,1717950791
163,lorengau,-2.0226,147.2712,27.56,80,39,1.86,PG,1717950944
164,arvayheer,46.2639,102.775,13.51,53,63,4.21,MN,1717950973
165,arkhangel'sk,64.5401,40.5433,16.06,51,20,2.0,RU,1717950946
166,igarka,67.4667,86.5833,11.68,79,99,4.02,RU,1717950893
167,sultanpur,26.2667,82.0667,37.61,15,4,3.68,IN,1717950973
168,ca mau,9.1769,105.15,26.02,83,100,1.99,VN,1717950973
169,ambon,-3.6954,128.1814,25.08,94,75,2.06,ID,1717950974
170,selma,36.5708,-119.6121,28.46,53,0,3.6,US,1717950974
171,kenai,60.5544,-151.2583,13.34,63,0,4.63,US,1717950941
172,la paz,-16.5,-68.15,16.43,18,66,2.06,BO,1717950740
173,kandalaksha,67.162,32.4123,11.13,76,41,2.98,RU,1717950974
174,buenavista,8.9769,125.4089,24.45,90,100,1.61,PH,1717950974
175,lebu,-37.6167,-73.65,12.96,85,49,7.41,CL,1717950697
176,brookings,44.3114,-96.7984,22.81,45,0,3.6,US,1717950928
177,galle,6.0367,80.217,27.38,83,97,5.35,LK,1717950806
178,nsanje,-16.92,35.262,19.8,72,77,2.66,MW,1717950975
179,miles city,46.4083,-105.8406,16.54,51,40,5.66,US,1717950975
180,siocon,7.7061,122.1353,26.59,87,100,1.51,PH,1717950975
181,tutong,4.8,114.65,29.05,87,98,1.38,BN,1717950975
182,yuzhno-kurilsk,44.0306,145.8556,11.32,93,99,3.75,RU,1717950975
183,susuman,62.7833,148.1667,3.88,58,94,0.89,RU,1717950975
184,zymohiria,48.5857,38.9273,22.73,64,98,1.64,UA,1717950976
185,nabire,-3.3667,135.4833,24.33,95,81,1.53,ID,1717950953
186,wad rawah,15.1603,33.1397,33.27,34,71,8.94,SD,1717950976
187,chaoyang,41.5703,120.4586,20.35,44,31,1.28,CN,1717950976
188,allapalli,19.4167,80.0667,30.45,62,45,1.99,IN,1717950976
189,terenos,-20.4422,-54.8603,31.84,37,0,8.75,BR,1717950976
190,san patricio,28.017,-97.5169,34.74,43,3,5.67,US,1717950880
191,coquimbo,-29.9533,-71.3436,15.85,76,0,1.03,CL,1717950720
192,flin flon,54.7682,-101.865,9.91,62,20,2.06,CA,1717950976
193,klyuchi,52.2667,79.1667,18.0,67,64,3.94,RU,1717950976
194,nar'yan-mar,67.6713,53.087,5.06,71,100,4.92,RU,1717950977
195,tadmur,34.5608,38.2805,30.28,24,63,6.27,SY,1717950977
196,cestos city,5.46,-9.5828,27.41,81,67,3.37,LR,1717950977
197,gilgit,35.9221,74.3087,20.39,43,38,1.5,PK,1717950977
198,palikir - national government center,6.9248,158.1611,25.41,94,100,1.54,FM,1717950887
199,bodaybo,57.8506,114.1933,8.17,87,7,0.98,RU,1717950732
200,anadyr,64.75,177.4833,0.28,100,0,3.0,RU,1717950977
201,sosnovyy bor,59.9,29.1167,14.36,94,100,4.51,RU,1717950977
202,mbandjok,4.45,11.9,23.68,90,88,2.5,CM,1717950978
203,vorkuta,67.5,64.0,2.28,96,100,1.79,RU,1717950878
204,bamboo flat,11.7,92.7167,24.05,94,100,2.57,IN,1717950897
205,selfoss,63.9331,-20.9971,12.22,51,47,5.3,IS,1717950941
206,vangviang,18.9333,102.45,22.3,99,100,0.38,LA,1717950978
207,kerikeri,-35.2268,173.9474,17.73,95,100,4.47,NZ,1717950978
208,sinop,41.7711,34.8709,16.89,82,0,0.79,TR,1717950978
209,laascaanood,8.4774,47.3597,27.67,47,26,12.14,SO,1717950978
210,castillos,-34.1667,-53.8333,24.03,71,97,6.45,UY,1717950978
211,capitan bado,-23.2667,-55.5333,32.49,23,74,8.5,PY,1717950979
212,cidade velha,14.9167,-23.6167,28.26,51,20,10.29,CV,1717950979
213,eastham,41.8301,-69.9739,19.97,84,100,1.54,US,1717950979
214,waingapu,-9.6567,120.2641,23.6,86,3,3.94,ID,1717950979
215,steinkjer,64.193,11.3851,12.52,57,100,2.6,NO,1717950979
216,polyarnyy,69.1989,33.4478,7.87,76,15,7.4,RU,1717950789
217,kavaratti,10.5669,72.642,28.06,84,100,5.85,IN,1717950979
218,mikun',62.3547,50.0771,13.34,77,91,4.27,RU,1717950979
219,vila velha,-20.3297,-40.2925,28.31,99,20,2.57,BR,1717950558
220,guarapari,-20.6667,-40.4975,25.39,59,29,5.3,BR,1717950980
221,lazaro cardenas,17.9583,-102.2,29.59,57,19,4.8,MX,1717950880
222,urangan,-25.3,152.9,14.0,72,19,2.68,AU,1717950980
223,saint-pierre,-21.3393,55.4781,22.82,73,0,4.63,RE,1717950892
224,el bayadh,33.6832,1.0193,26.98,22,82,4.56,DZ,1717950980
225,galliano,29.4422,-90.2992,33.33,65,100,0.0,US,1717950980
226,fort mcmurray,56.7268,-111.381,10.77,71,100,2.06,CA,1717950980
227,antsiranana,-12.2787,49.2917,23.55,71,31,6.35,MG,1717950896
228,chuhar jamali,24.3895,67.9923,30.08,69,0,6.87,PK,1717950980
229,standerton,-26.9337,29.2415,9.77,42,1,0.28,ZA,1717950981
230,nova olinda do norte,-3.8881,-59.0942,30.84,67,53,0.93,BR,1717950981
231,iskateley,67.6803,53.1512,5.01,71,100,4.92,RU,1717950981
232,marang,5.2056,103.2059,25.95,88,100,1.5,MY,1717950981
233,viedma,-40.8135,-62.9967,17.19,51,100,6.46,AR,1717950726
234,bodo,67.28,14.405,17.02,51,0,5.66,NO,1717950968
235,argo,37.6333,22.7333,27.75,43,5,2.6,GR,1717950960
236,nahiyat ash shinafiyah,31.5874,44.6602,42.57,8,19,4.09,IQ,1717950981
237,ad dilam,23.9915,47.1627,40.23,7,0,4.83,SA,1717950981
238,rongelap,11.1635,166.8941,28.5,79,44,6.59,MH,1717950884
239,hillsborough,37.5741,-122.3794,21.03,73,75,6.17,US,1717950982
240,cambria,35.5641,-121.0808,19.43,72,69,2.52,US,1717950982
241,berezovo,63.9381,65.0419,17.47,58,94,2.97,RU,1717950982
242,lawas,13.764,121.0566,26.62,84,100,2.42,PH,1717950982
243,st. john's,47.5649,-52.7093,16.66,67,100,4.12,CA,1717950760
244,cooma,-36.2333,149.1333,1.62,93,35,0.84,AU,1717950982
245,delijan,33.9905,50.6838,30.45,14,85,2.15,IR,1717950982
246,tsetserleg,47.475,101.4542,11.12,67,98,1.7,MN,1717950982
247,burnie,-41.0667,145.9167,3.58,73,3,4.46,AU,1717950982
248,el doncello,1.6782,-75.2847,27.35,74,74,1.95,CO,1717950983
249,sagua de tanamo,20.5819,-75.2414,32.29,55,100,0.66,CU,1717950983
250,plesetsk,62.708,40.2916,13.87,74,57,2.89,RU,1717950983
251,al burayqah,30.4062,19.5739,25.29,58,0,5.31,LY,1717950983
252,kuytun,54.3419,101.5036,13.26,96,88,2.94,RU,1717950983
253,ilulissat,69.2167,-51.1,4.01,75,40,3.09,GL,1717950872
254,porto novo,6.4965,2.6036,28.9,76,76,4.41,BJ,1717950948
255,nuuk,64.1835,-51.7216,5.34,100,100,8.23,GL,1717950900
256,kodinsk,58.6881,99.1844,11.91,99,100,1.09,RU,1717950730
257,angra do heroismo,38.65,-27.2167,22.34,77,20,3.13,PT,1717950983
258,chibougamau,49.9168,-74.3659,12.79,94,100,3.6,CA,1717950883
259,urengoy,65.9667,78.3667,7.17,73,35,3.5,RU,1717950984
260,happy valley-goose bay,53.3168,-60.3315,23.17,49,20,5.66,CA,1717950984
261,dalandzadgad,43.5708,104.425,21.67,20,53,2.13,MN,1717950984
262,thompson,55.7435,-97.8558,11.09,35,20,1.54,CA,1717950722
263,cidreira,-30.1811,-50.2056,23.84,63,11,1.99,BR,1717950719
264,rantepao,-2.9701,119.8978,19.04,100,84,0.89,ID,1717950984
265,ghat,24.9647,10.1728,37.31,5,0,4.16,LY,1717950984
266,afaahiti,-17.75,-149.2833,24.93,84,92,6.42,PF,1717950984
267,dunay,42.8803,132.3375,14.84,98,62,1.37,RU,1717950984
268,baissa,7.2333,10.6333,27.97,79,84,0.35,NG,1717950985
269,sonoita,31.85,-112.8333,32.41,11,3,9.12,MX,1717950985
270,thinadhoo,0.5333,72.9333,28.79,71,100,2.26,MV,1717950985
271,nova sintra,14.8667,-24.7167,23.51,81,0,7.95,CV,1717950884
272,prince rupert,54.3161,-130.3201,11.83,85,100,5.66,CA,1717950985
273,yeysk,46.6989,38.2792,23.09,70,5,2.02,RU,1717950985
274,howrah,22.5892,88.3103,31.0,89,40,5.66,IN,1717950954
275,khuzdar,27.7384,66.6434,28.38,32,3,2.38,PK,1717950985
276,moisei,47.6556,24.5401,18.39,98,90,0.93,RO,1717950985
277,puerto baquerizo moreno,-0.9,-89.6,26.55,69,75,5.14,EC,1717950731
278,vila franca do campo,37.7167,-25.4333,20.23,99,78,2.55,PT,1717950880
279,berryville,36.3648,-93.568,22.9,91,100,2.82,US,1717950986
280,envira,-7.3,-70.2167,30.0,67,99,2.07,BR,1717950986
281,maputo,-25.9653,32.5892,18.82,55,20,2.57,MZ,1717950986
282,adelanto,34.5828,-117.4092,26.78,27,28,0.26,US,1717950986
283,ust'-barguzin,53.45,108.9833,7.86,90,33,1.19,RU,1717950889
284,huejutla de reyes,21.1333,-98.4167,35.6,39,2,2.92,MX,1717950986
285,bereket,39.2446,55.5154,33.83,19,20,0.72,TM,1717950986
286,wynyard,-41.0,145.7167,7.12,79,6,3.8,AU,1717950986
287,sibut,5.718,19.0739,22.36,97,100,3.97,CF,1717950987
288,kulhudhuffushi,6.6221,73.07,28.92,78,99,6.75,MV,1717950987
289,jalai nur,49.45,117.7,14.29,64,100,2.99,CN,1717950987
290,mugia,43.1041,-9.2179,16.06,77,3,10.08,ES,1717950883
291,alo,7.4178,6.7371,32.01,57,78,3.81,NG,1717950947
292,cacule,-14.5033,-42.2222,23.85,57,91,3.4,BR,1717950987
293,cobadin,44.0833,28.2167,28.81,57,70,5.88,RO,1717950987
294,san jose de jachal,-30.2406,-68.7469,22.07,10,6,2.67,AR,1717950987
295,feodosiya,45.0333,35.3833,23.55,65,9,1.22,UA,1717950987
296,sbiba,35.5433,9.0737,35.13,13,99,10.86,TN,1717950988
297,christchurch,-43.5333,172.6333,13.11,77,36,5.14,NZ,1717950895
298,kesinga,20.2,83.2333,32.54,50,46,7.35,IN,1717950988
299,muswellbrook,-32.2667,150.9,6.8,94,13,2.22,AU,1717950988
300,usinsk,65.9939,57.5281,10.04,50,100,4.47,RU,1717950887
301,mangalam,9.7667,78.6667,29.44,62,100,4.32,IN,1717950988
302,weno,7.4515,151.8468,26.97,94,100,0.0,FM,1717950875
303,nguigmi,14.2495,13.1092,37.32,15,77,2.59,NE,1717950988
304,tsiombe,-25.3,45.4833,17.86,62,100,5.06,MG,1717950961
305,nova vicosa,-17.8919,-39.3719,25.04,66,100,2.95,BR,1717950988
306,kristiansund,63.1115,7.732,14.36,71,75,9.77,NO,1717950953
307,smidovich,48.6,133.8167,12.9,97,100,2.65,RU,1717950989
308,acapulco de juarez,16.8634,-99.8901,28.9,70,20,2.57,MX,1717950813
309,raja,8.4596,25.678,24.89,73,91,1.86,SS,1717950989
310,ponta delgada,37.7333,-25.6667,20.4,73,40,5.14,PT,1717950989
311,as sulayyil,20.4607,45.5779,42.14,7,0,5.39,SA,1717950989
312,geraldton,-28.7667,114.6,20.23,64,75,5.14,AU,1717950877
313,petauke,-14.2426,31.3253,14.57,71,66,2.3,ZM,1717950989
314,al muwayh,22.4333,41.7583,37.48,12,68,10.12,SA,1717950989
315,nayoro,44.3506,142.4578,15.15,98,100,1.93,JP,1717950989
316,talakan,50.3167,130.3667,11.05,94,1,1.1,RU,1717950989
317,buzuluk,52.7807,52.2635,20.54,73,56,0.89,RU,1717950990
318,koekelare,51.0937,2.9659,18.29,58,20,6.17,BE,1717950990
319,linden,6.0,-58.3,28.75,77,100,1.16,GY,1717950990
320,quepos,9.4236,-84.1652,29.41,72,98,1.95,CR,1717950864
321,sur,22.5667,59.5289,33.38,46,19,2.41,OM,1717950990
322,turpan,42.9333,89.1667,34.69,17,0,3.55,CN,1717950990
323,sima,53.9202,102.0442,13.06,97,62,1.84,RU,1717950990
324,tambacounda,13.7539,-13.7586,37.03,39,0,3.09,SN,1717950990
325,pemangkat,1.1667,108.9667,27.6,82,54,2.78,ID,1717950990
326,queenstown,-31.8976,26.8753,10.86,49,0,2.61,ZA,1717950883
327,arraial do cabo,-22.9661,-42.0278,25.98,61,0,8.23,BR,1717950880
328,khapa,21.4333,78.9667,32.97,56,60,0.74,IN,1717950991
329,taroa,8.7058,171.2275,28.25,79,66,6.28,MH,1717950951
330,yashkul',46.1711,45.3435,24.09,48,100,6.74,RU,1717950991
331,gadzhiyevo,69.2551,33.3362,7.15,79,15,7.57,RU,1717950788
332,soria,41.6667,-2.6667,18.39,67,89,1.76,ES,1717950991
333,mount pearl,47.5166,-52.7813,16.19,67,100,4.12,CA,1717950786
334,drahichyn,52.1874,25.1597,19.76,82,46,1.57,BY,1717950991
335,faya-largeau,17.9257,19.1043,40.55,7,8,4.57,TD,1717950955
336,dudinka,69.4058,86.1778,3.71,94,91,3.58,RU,1717950731
337,saiki,32.95,131.9,19.15,94,89,1.26,JP,1717950992
338,nagqu,31.5,92.0,9.11,52,89,1.97,CN,1717950992
339,gao,16.6362,1.637,43.11,11,10,1.65,ML,1717950955
340,ta`u,-14.2336,-169.5144,25.94,67,99,7.71,AS,1717950891
341,dunedin,-45.8742,170.5036,8.78,99,100,6.26,NZ,1717950992
342,bel ombre,-4.6167,55.4167,27.91,78,20,3.6,SC,1717950873
343,akonolinga,3.7667,12.25,22.37,96,60,1.78,CM,1717950992
344,shenjiamen,29.9576,122.298,20.82,96,100,3.85,CN,1717950992
345,saarburg,48.7333,7.05,22.34,77,99,3.44,FR,1717950819
346,vrontados,38.4089,26.1328,29.92,42,0,3.6,GR,1717950992
347,khash,28.2211,61.2158,28.41,8,1,2.94,IR,1717950993
348,poxoreo,-15.8372,-54.3892,33.92,23,82,4.17,BR,1717950942
349,west mackay,-21.1481,149.1605,11.46,71,0,2.46,AU,1717950993
350,tetiiv,49.3767,29.6647,19.99,82,100,4.55,UA,1717950993
351,mirpur sakro,24.5474,67.6277,29.64,75,0,7.08,PK,1717950993
352,domoni,-12.2569,44.5319,25.68,72,99,4.93,KM,1717950993
353,hasaki,35.7333,140.8333,19.22,75,100,5.47,JP,1717950993
354,kargasok,59.0556,80.8572,12.76,57,4,3.13,RU,1717950729
355,tralee,52.2704,-9.7026,14.14,82,75,4.12,IE,1717950878
356,mhamid,29.82,-5.72,36.7,9,1,10.79,MA,1717950994
357,papao,-17.75,-149.55,25.82,81,92,7.46,PF,1717950994
358,carauari,-4.8828,-66.8958,32.38,50,63,1.18,BR,1717950994
359,piton saint-leu,-21.2196,55.3151,21.06,73,0,4.63,RE,1717950994
360,alofi,-19.0595,-169.9187,20.94,83,40,4.63,NU,1717950876
361,shingu,33.7333,135.9833,18.22,96,100,2.85,JP,1717950994
362,khorinsk,52.1657,109.7726,15.74,58,79,1.3,RU,1717950994
363,kirakira,-10.4544,161.9205,26.99,87,69,4.34,SB,1717950950
364,port-vila,-17.7338,168.3219,23.13,87,69,2.0,VU,1717950994
365,victoria falls,-17.9235,25.843,16.88,50,0,1.77,ZW,1717950995
366,zalingei,12.9096,23.4741,24.86,68,92,3.03,SD,1717950995
367,al wajh,26.2455,36.4525,33.97,38,0,4.63,SA,1717950995
368,letlhakane,-21.4167,25.5833,13.97,47,0,4.72,BW,1717950995
369,richfield,44.8833,-93.283,21.79,41,20,9.26,US,1717950905
370,saldanha,-33.0117,17.9442,18.03,69,7,4.9,ZA,1717950888
371,vakarai,55.6035,23.8213,16.29,67,32,3.73,LT,1717950995
372,lao cai,22.4833,103.95,24.48,99,100,0.24,VN,1717950995
373,port moresby,-9.4431,147.1797,24.43,91,14,4.53,PG,1717950995
374,atafu village,-8.5421,-172.5159,28.3,74,100,3.86,TK,1717950877
375,erenhot,43.6475,111.9767,24.53,20,66,4.51,CN,1717950996
376,gornozavodsk,58.3758,58.3211,10.46,95,75,1.26,RU,1717950996
377,morehead city,34.7229,-76.726,33.33,69,0,6.17,US,1717950868
378,laizhou,37.1717,119.9214,23.78,46,100,2.25,CN,1717950996
379,colonia,50.9333,6.95,21.01,38,0,4.12,DE,1717950946
380,valle hermoso,25.6667,-97.8333,33.94,43,0,7.56,MX,1717950904
381,qarazhal,48.0078,70.7903,23.2,49,87,7.85,KZ,1717950996
382,mangrol,21.1167,70.1167,29.87,79,64,4.79,IN,1717950996
383,moyale,3.5167,39.0584,22.45,62,89,1.37,KE,1717950996
384,westport,41.1415,-73.3579,23.09,76,100,2.68,US,1717950984
385,qingnian,36.8456,115.7117,27.82,25,75,2.77,CN,1717950997
386,pombal,-6.7703,-37.8017,32.69,38,59,4.53,BR,1717950997
387,pamanukan,-6.2842,107.8106,25.18,89,15,2.05,ID,1717950997
388,rahuri,19.3833,74.65,23.56,91,99,4.59,IN,1717950997
389,lihue,21.9789,-159.3672,23.77,82,100,4.12,US,1717950880
390,solok,-0.7918,100.6593,24.53,92,76,1.08,ID,1717950997
391,al ghayzah,16.2079,52.176,30.85,75,3,5.21,YE,1717950997
392,losone,46.1687,8.7593,22.99,91,20,1.03,CH,1717950998
393,ust'-talovka,50.5493,81.85,19.69,82,26,1.55,KZ,1717950998
394,khorugh,37.4897,71.553,12.05,55,36,2.38,TJ,1717950998
395,rabo de peixe,37.8,-25.5833,19.73,99,40,5.14,PT,1717950998
396,kandi,11.1342,2.9386,37.64,29,12,0.96,BJ,1717950998
397,carapelle,41.3652,15.6938,29.14,45,0,6.69,IT,1717950998
398,leava,-14.3,-178.1667,27.03,74,87,8.09,WF,1717950998
399,salekhard,66.53,66.6019,10.22,60,98,3.13,RU,1717950881
400,kota belud,6.351,116.4305,25.2,90,100,1.98,MY,1717950773
401,cova figueira,14.8905,-24.2934,19.47,74,0,7.68,CV,1717950998
402,vasyurinskaya,45.1181,39.424,21.58,73,100,3.88,RU,1717950998
403,shakiso,5.75,38.9167,16.15,93,99,1.21,ET,1717950999
404,menongue,-14.6585,17.691,19.6,28,32,2.41,AO,1717950999
405,kapuskasing,49.4169,-82.4331,8.05,93,100,7.2,CA,1717950881
406,sogndal,61.2283,7.1003,10.21,81,75,2.06,NO,1717950999
407,elliot,-31.3333,27.85,7.89,58,0,2.32,ZA,1717950999
408,mawlaik,23.6333,94.4167,26.14,77,65,0.54,MM,1717950999
409,songjianghe,42.1859,127.479,9.26,96,1,2.01,CN,1717950999
410,corral de bustos,-33.2821,-62.1846,24.41,50,0,8.33,AR,1717950999
411,fale old settlement,-9.3852,-171.2468,28.75,71,99,4.0,TK,1717950999
412,vadso,70.0744,29.7487,7.49,87,75,5.14,NO,1717950999
413,az zuwaytinah,30.9522,20.1202,24.85,59,0,6.92,LY,1717950893
414,lisieux,49.1667,0.1667,17.73,69,8,4.98,FR,1717951000
415,ippy,6.2679,21.2247,21.94,95,89,2.19,CF,1717951000
416,hammerfest,70.6634,23.6821,14.25,62,0,4.63,NO,1717951000
417,sandnessjoen,66.0217,12.6316,18.29,51,0,4.63,NO,1717950881
418,akita,39.7167,140.1167,17.73,93,100,1.76,JP,1717951000
419,rada tilly,-45.9333,-67.5333,10.27,87,40,2.06,AR,1717951000
420,alexandria,31.2156,29.9553,24.3,72,0,6.11,EG,1717950866
421,magistral'nyy,56.1725,107.4458,12.43,52,100,1.07,RU,1717951000
422,naryn,41.4287,75.9911,12.96,58,84,2.13,KG,1717951001
423,tazacorte,28.629,-17.9293,22.86,79,75,3.6,ES,1717950886
424,palmer,42.1584,-72.3287,14.75,82,100,3.09,US,1717951001
425,arkalyk,50.2486,66.9114,23.97,54,35,3.99,KZ,1717951001
426,illizi,26.4833,8.4667,41.89,5,0,6.43,DZ,1717950889
427,taroudant,30.4703,-8.877,25.51,43,8,9.77,MA,1717951001
428,nawabganj,24.5911,88.271,33.82,57,4,8.3,BD,1717951001
429,malmberget,67.1753,20.6549,15.31,39,0,5.14,SE,1717951001
430,boquira,-12.8231,-42.7306,32.0,27,39,4.55,BR,1717951001
431,vangaindrano,-23.35,47.6,17.98,82,100,4.68,MG,1717951001
432,tabas,33.5959,56.9244,33.49,9,0,5.31,IR,1717951002
433,kosan,38.8558,127.4181,17.35,97,8,2.84,KP,1717951002
434,shippensburg,40.0507,-77.5203,24.62,60,66,3.58,US,1717951002
435,deqen,29.9618,90.7188,12.48,59,59,2.11,CN,1717951002
436,hithadhoo,-0.6,73.0833,28.7,72,100,2.39,MV,1717950873
437,firuzabad,28.8438,52.5707,27.75,30,14,1.46,IR,1717951002
438,vacaria,-28.5122,-50.9339,21.13,70,32,4.76,BR,1717950843
439,bochum,51.4833,7.2167,20.76,40,64,1.79,DE,1717950966
440,chita,52.0333,113.55,10.94,94,72,1.0,RU,1717951002
441,mairang,25.5667,91.6333,17.7,71,41,2.08,IN,1717951003
442,freetown,8.484,-13.2299,29.84,70,75,5.66,SL,1717951003
443,fort bragg,35.139,-79.006,33.23,43,20,3.6,US,1717950888
444,lodja,-3.4833,23.4333,25.39,37,70,0.79,CD,1717951003
445,battle ground,45.7809,-122.5334,19.38,79,100,1.79,US,1717951003
446,kailua-kona,19.6406,-155.9956,25.33,90,40,1.54,US,1717950958
447,doka,13.5167,35.7667,22.97,82,82,11.6,SD,1717951003
448,aykhal,66.0,111.5,15.24,35,61,3.02,RU,1717951003
449,vilyuchinsk,52.9306,158.4028,12.15,88,99,3.88,RU,1717950875
450,alegrete,-29.7831,-55.7919,25.49,69,62,7.33,BR,1717951004
451,sisimiut,66.9395,-53.6735,1.87,98,100,1.58,GL,1717951004
452,lockhart,28.6194,-81.4426,35.08,53,20,2.06,US,1717951004
453,general mosconi,-23.1851,-62.303,34.19,25,70,9.61,AR,1717951004
454,maragogi,-9.0122,-35.2225,27.17,72,26,5.76,BR,1717951004
455,macon,39.8667,-88.9668,25.7,60,0,3.6,US,1717951004
456,praia da vitoria,38.7333,-27.0667,22.14,68,20,4.72,PT,1717951004
457,sakakah,29.9697,40.2064,39.76,9,0,3.64,SA,1717951004
458,port saint john's,-31.6229,29.5448,17.67,70,0,3.56,ZA,1717951004
459,ordynskoye,54.3656,81.8994,11.75,85,20,0.88,RU,1717951004
460,saint-joseph,-21.3667,55.6167,22.21,81,33,5.18,RE,1717950956
461,daru,-9.0763,143.2092,25.89,87,97,7.62,PG,1717951005
462,muroto-misakicho,33.2833,134.15,20.68,85,100,6.0,JP,1717951005
463,san antonio de pale,-1.4014,5.6325,25.1,79,70,4.73,GQ,1717950887
464,umuarama,-23.7664,-53.325,30.49,31,67,8.01,BR,1717950812
465,dowlatabad,32.7998,51.6955,26.82,14,20,4.12,IR,1717951005
466,mpika,-11.8343,31.4529,12.46,91,59,2.36,ZM,1717951005
467,quelimane,-17.8786,36.8883,20.97,94,75,4.71,MZ,1717951005
468,arica,-18.475,-70.3042,19.13,63,100,1.54,CL,1717950926
469,aligudarz,33.4006,49.6949,21.66,30,73,5.39,IR,1717951005
470,banyo,6.75,11.8167,20.17,94,86,1.92,CM,1717951006
471,kosh-agach,50.0,88.6667,14.61,57,75,2.24,RU,1717951006
472,gondar,12.6,37.4667,17.82,69,96,3.72,ET,1717951006
473,portland,45.5234,-122.6762,20.36,70,75,2.57,US,1717950716
474,severnoye,56.3491,78.3619,12.21,74,15,1.79,RU,1717951006
475,kismayo,-0.3582,42.5454,26.14,76,64,8.03,SO,1717951006
476,sao tome,0.3365,6.7273,28.02,74,75,6.17,ST,1717951006
477,carboneras,37.0015,-1.9213,24.62,47,100,8.0,ES,1717951006
478,port shepstone,-30.7414,30.455,17.41,72,0,5.02,ZA,1717951006
479,teguise,29.0605,-13.564,22.12,60,40,3.09,ES,1717951006
480,punta del este,-34.9667,-54.95,25.06,77,75,8.75,UY,1717951006
481,al kharijah,25.4514,30.5464,34.31,13,0,4.59,EG,1717951007
482,chilliwack,49.1747,-121.9443,20.99,62,97,1.54,CA,1717950958
483,utrik,11.2278,169.8474,28.37,80,78,6.04,MH,1717950881
484,petrovsk,52.3064,45.3917,19.02,70,7,1.32,RU,1717951007
485,saipan,15.1355,145.701,28.39,78,20,3.6,MP,1717951007
486,charters towers,-20.1,146.2667,9.61,74,0,1.33,AU,1717951007
487,port augusta,-32.5,137.7667,13.77,49,100,3.13,AU,1717951008
488,ciudad acuna,29.3232,-100.9522,30.32,62,40,5.66,MX,1717951008
489,hollins,37.3413,-79.9431,28.7,59,75,7.2,US,1717951008
490,ban ko kaeo,7.936,98.3966,30.0,74,99,7.6,TH,1717951008
491,chadron,42.8294,-102.9999,22.2,51,0,5.66,US,1717951008
492,saint-francois,46.4154,3.9054,17.69,73,100,5.14,FR,1717951008
493,muisne,0.6,-80.0333,24.61,87,100,5.3,EC,1717950880
494,cole harbour,44.6724,-63.4751,21.09,71,71,7.72,CA,1717950765
495,akdepe,42.0551,59.3788,32.05,27,84,8.01,TM,1717951008
496,taunggyi,20.7833,97.0333,21.54,87,100,1.33,MM,1717951008
497,usogorsk,63.4106,48.6872,15.37,89,100,2.43,RU,1717951009
498,chinsali,-10.5414,32.0816,15.75,75,83,3.96,ZM,1717951009
499,ciudad bolivar,8.1222,-63.5497,32.63,54,99,2.53,VE,1717950742
500,kununurra,-15.7667,128.7333,12.99,88,49,0.0,AU,1717950969
501,castelo do piaui,-5.3222,-41.5525,31.91,43,94,2.29,BR,1717951009
502,necochea,-38.5473,-58.7368,15.05,95,100,7.77,AR,1717950878
503,buchanan,5.8808,-10.0467,27.68,80,64,3.46,LR,1717951009
504,safonovo,55.15,33.2167,16.06,75,100,2.35,RU,1717951009
505,hwasun,35.0594,126.985,16.17,87,79,0.54,KR,1717951009
506,mahina,-17.5065,-149.489,25.87,83,75,1.54,PF,1717950896
507,lamu,-2.2717,40.902,26.13,76,45,8.03,KE,1717951009
508,ouani,-12.1322,44.4258,26.16,71,99,6.04,KM,1717951010
509,komsomolsk-on-amur,50.552,137.0152,13.88,95,99,1.32,RU,1717950913
510,coari,-4.085,-63.1414,31.17,58,38,1.18,BR,1717950958
511,kathmandu,27.7167,85.3167,25.12,78,20,2.06,NP,1717951068
512,mukalla,14.5425,49.1242,31.23,72,79,2.27,YE,1717950956
513,amble,55.3333,-1.5833,14.08,58,75,2.06,GB,1717951010
514,kruisfontein,-34.0033,24.7314,11.6,82,0,1.54,ZA,1717950879
515,nogliki,51.8333,143.1667,9.08,85,100,3.58,RU,1717950950
516,alice springs,-23.7,133.8833,5.75,93,0,0.0,AU,1717950884
517,badr hunayn,23.7829,38.7905,33.98,36,3,0.73,SA,1717951011
518,atalaia,-9.5019,-36.0228,28.28,85,37,4.67,BR,1717951011
519,torghay,49.6339,63.4981,23.87,56,52,4.25,KZ,1717951011
520,ola,59.5833,151.2833,5.08,92,100,1.96,RU,1717950789
521,saurimo,-9.6608,20.3916,21.88,31,35,1.67,AO,1717950880
522,axim,4.8699,-2.2405,27.08,81,98,3.73,GH,1717950951
523,claremore,36.3126,-95.6161,26.9,81,0,4.12,US,1717951011
524,callao,-12.0667,-77.15,20.79,77,100,3.6,PE,1717951011
525,grenade,37.25,-3.25,21.97,45,88,4.54,ES,1717951011
526,garoua boulai,5.8833,14.55,19.39,95,94,4.94,CM,1717951012
527,sao raimundo nonato,-9.0153,-42.6994,33.53,31,34,4.45,BR,1717951012
528,the pas,53.8251,-101.2541,11.01,62,40,4.12,CA,1717951012
529,el calafate,-50.3408,-72.2768,1.89,99,100,1.67,AR,1717950985
530,sambava,-14.2667,50.1667,23.8,73,66,7.68,MG,1717951012
531,kavieng,-2.5744,150.7967,28.16,80,82,2.5,PG,1717950952
532,pagar alam,-4.0167,103.2667,20.68,97,100,1.22,ID,1717950772
533,kampene,-3.6,26.6667,24.47,46,45,0.23,CD,1717951012
534,ed damer,17.5928,33.9592,41.01,15,1,4.71,SD,1717951012
535,akarp,58.2333,13.65,12.71,84,74,6.87,SE,1717951012
536,dijkot,31.2167,72.9833,34.1,26,45,3.02,PK,1717951013
537,ambovombe,-25.1667,46.0833,17.52,69,98,7.05,MG,1717951013
538,poronaysk,49.2167,143.1167,8.37,95,100,0.82,RU,1717951013
539,quellon,-43.1167,-73.6167,11.51,84,97,5.22,CL,1717950776
540,naha,26.2125,127.6811,24.95,96,20,1.54,JP,1717951013
541,taos,36.4072,-105.5731,25.67,35,0,1.54,US,1717951013
542,sarkand,45.41,79.9186,21.91,45,75,3.81,KZ,1717950799
543,ha giang,22.8333,104.9833,24.34,98,100,0.36,VN,1717951013
544,airuk,7.2772,168.8203,28.39,79,86,5.81,MH,1717951014
545,alliance,40.9153,-81.1059,22.58,60,16,5.94,US,1717951014
546,kupang,-10.1667,123.5833,25.32,94,0,2.57,ID,1717951014
547,bahia blanca,-38.7196,-62.2724,18.61,70,100,6.28,AR,1717950932
548,jurilovca,44.7667,28.8667,27.05,69,98,7.04,RO,1717951014
549,rio branco,-9.9747,-67.81,33.34,52,40,3.09,BR,1717951014
550,maisi,43.0395,41.2621,15.67,98,68,1.43,GE,1717951014
551,anna regina,7.2644,-58.5077,26.9,79,100,3.45,GY,1717951014
552,tenno,39.9,139.9667,17.65,94,100,2.18,JP,1717951014
553,mermoz boabab,14.7065,-17.4758,29.31,69,40,2.06,SN,1717951015
554,al mindak,20.1588,41.2834,32.78,40,9,0.49,SA,1717950896
555,margate,51.3813,1.3862,17.17,56,70,3.13,GB,1717951015
556,le port,-20.9373,55.2919,23.0,78,10,1.89,RE,1717951015
557,chernyshevskiy,63.0128,112.4714,9.63,78,10,2.0,RU,1717950875
558,edna,28.9786,-96.6461,33.95,38,0,5.66,US,1717951015
559,gloucester point,37.254,-76.4969,32.21,48,0,6.69,US,1717951015
560,petrolina,-9.3986,-40.5008,31.03,45,20,6.69,BR,1717950754
561,arno,60.1167,18.6333,9.32,66,89,5.37,SE,1717951015
562,shahrud,36.4182,54.9763,28.29,17,4,0.74,IR,1717951015
563,san andres,12.5847,-81.7006,32.01,74,20,2.57,CO,1717950897
564,topchikha,52.8192,83.1185,15.2,89,35,3.3,RU,1717951016
565,spring creek,40.7266,-115.5859,25.45,40,41,1.8,US,1717951016
566,kota kinabalu,5.9749,116.0724,27.99,83,20,1.54,MY,1717950770
567,valparaiso,-33.0393,-71.6273,16.19,76,40,4.12,CL,1717950935
568,tofol,5.3248,163.0078,28.98,77,78,6.42,FM,1717951016
569,walvis bay,-22.9575,14.5053,22.08,33,35,4.14,NA,1717950964
570,hradec kralove,50.2092,15.8328,23.94,60,100,1.84,CZ,1717950774
571,remire-montjoly,4.9167,-52.2667,28.02,83,25,1.54,GF,1717950883
572,cataingan,12.003,123.992,27.7,83,90,2.44,PH,1717951016
573,kirensk,57.7853,108.1119,10.54,66,9,1.79,RU,1717951016
574,as saffaniyah,27.9708,48.73,31.49,62,0,4.36,SA,1717951017
575,wickenburg,33.9686,-112.7296,33.02,17,70,5.0,US,1717951017
576,namibe,-15.1961,12.1522,20.86,80,2,2.98,AO,1717950955
577,gorgan,36.8387,54.4348,25.98,65,0,4.12,IR,1717951017
578,quillacollo,-17.4,-66.2833,23.04,10,96,0.0,BO,1717951017
579,pacific grove,36.6177,-121.9166,16.33,84,75,2.57,US,1717950882
580,inhambane,-23.865,35.3833,17.99,94,75,1.54,MZ,1717951017
581,lauro de freitas,-12.8944,-38.3272,28.01,74,75,6.69,BR,1717950800
582,new norfolk,-42.7826,147.0587,6.51,80,35,2.04,AU,1717951017
583,mossel bay,-34.1831,22.146,12.96,81,1,3.15,ZA,1717951017
584,bac kan,22.1333,105.8333,24.38,100,99,0.51,VN,1717951018
